[
    {
        "name": "Homerton Library",
        "address_line_1": "Homerton High St",
        "address_line_2": "",
        "county": "Greater London",
        "postcode": "E9 6AS",
        "address_area": "Homerton",
        "active": true,
        "timezone": "Europe/London",
        "latitude": "51.54887470",
        "longitude": "-0.04165820",
        "created_on": "2025-12-21 20:08:19+00",
        "modified_on": "2025-12-21 20:08:19+00"
    },
    {
        "name": "The Crown & Shuttle Pub",
        "address_line_1": "226 Shoreditch High Street",
        "address_line_2": "",
        "county": "Greater London",
        "postcode": "E1 6JP",
        "address_area": "Shoreditch",
        "active": true,
        "timezone": "Europe/London",
        "latitude": "51.52249510",
        "longitude": "-0.07817970",
        "created_on": "2025-12-21 20:08:17+00",
        "modified_on": "2025-12-21 20:08:17+00"
    },
    {
        "name": "St Peters Crypt",
        "address_line_1": "St Peter's De Beauvoir Town",
        "address_line_2": "Northchurch Terrace, Hackney",
        "county": "Greater London",
        "postcode": "N1 4DA",
        "address_area": "Dalston",
        "active": true,
        "timezone": "Europe/London",
        "latitude": null,
        "longitude": null,
        "created_on": "2025-12-21 20:08:17+00",
        "modified_on": "2025-12-21 20:08:17+00"
    },
    {
        "name": "The Post Bar",
        "address_line_1": "316 High Road",
        "address_line_2": "",
        "county": "Greater London",
        "postcode": "N15 4BN",
        "address_area": "Seven Sisters",
        "active": true,
        "timezone": "Europe/London",
        "latitude": "51.58809230",
        "longitude": "-0.07039020",
        "created_on": "2025-12-21 20:08:17+00",
        "modified_on": "2025-12-21 20:08:17+00"
    },
    {
        "name": "Blighty Cafe",
        "address_line_1": "35-37 Blackstock Rd",
        "address_line_2": "",
        "county": "Greater London",
        "postcode": "N4 2JF",
        "address_area": "Finsbury Park",
        "active": true,
        "timezone": "Europe/London",
        "latitude": null,
        "longitude": null,
        "created_on": "2025-12-21 20:08:17+00",
        "modified_on": "2025-12-21 20:08:17+00"
    },
    {
        "name": "House of Barnabas",
        "address_line_1": "1 Greek Street",
        "address_line_2": "",
        "county": "Greater London",
        "postcode": "W1D 4NQ",
        "address_area": "Soho",
        "active": true,
        "timezone": "Europe/London",
        "latitude": "51.51495280",
        "longitude": "-0.13123850",
        "created_on": "2025-12-21 20:08:17+00",
        "modified_on": "2025-12-21 20:08:17+00"
    },
    {
        "name": "Prince Albert Pub",
        "address_line_1": "163 Royal College Street",
        "address_line_2": "",
        "county": "Greater London",
        "postcode": "NW1 0SG",
        "address_area": "Camden",
        "active": true,
        "timezone": "Europe/London",
        "latitude": "51.53995780",
        "longitude": "-0.13703800",
        "created_on": "2025-12-21 20:08:17+00",
        "modified_on": "2025-12-21 20:08:17+00"
    },
    {
        "name": "The Hackney Wick Sauna Baths",
        "address_line_1": "80 Eastway",
        "address_line_2": "",
        "county": "Greater London",
        "postcode": "E9 5JH",
        "address_area": "Stratford",
        "active": true,
        "timezone": "Europe/London",
        "latitude": null,
        "longitude": null,
        "created_on": "2025-12-21 20:08:18+00",
        "modified_on": "2025-12-21 20:08:18+00"
    },
    {
        "name": "Covent Garden",
        "address_line_1": "WC2",
        "address_line_2": "",
        "county": "Greater London",
        "postcode": "WC2",
        "address_area": "Covent Garden",
        "active": true,
        "timezone": "Europe/London",
        "latitude": null,
        "longitude": null,
        "created_on": "2025-12-21 20:08:18+00",
        "modified_on": "2025-12-21 20:08:18+00"
    },
    {
        "name": "TRA Community Hall",
        "address_line_1": "Simla House",
        "address_line_2": "Weston Street",
        "county": "Greater London",
        "postcode": "SE1 3RL",
        "address_area": "London Bridge",
        "active": true,
        "timezone": "Europe/London",
        "latitude": "51.50044080",
        "longitude": "-0.08557780",
        "created_on": "2025-12-21 20:08:18+00",
        "modified_on": "2025-12-21 20:08:18+00"
    },
    {
        "name": "Holborn Community Association",
        "address_line_1": "50 Millman St",
        "address_line_2": "",
        "county": "Greater London",
        "postcode": "WC1N 3EW",
        "address_area": "Holburn",
        "active": true,
        "timezone": "Europe/London",
        "latitude": "51.52293630",
        "longitude": "-0.11749550",
        "created_on": "2025-12-21 20:08:18+00",
        "modified_on": "2025-12-21 20:08:18+00"
    },
    {
        "name": "Garret Centre",
        "address_line_1": "Mansford Street Church 117 Mansford Street",
        "address_line_2": "",
        "county": "Greater London",
        "postcode": "E2 6LX",
        "address_area": "Bethnal Green",
        "active": true,
        "timezone": "Europe/London",
        "latitude": null,
        "longitude": null,
        "created_on": "2025-12-21 20:08:18+00",
        "modified_on": "2025-12-21 20:08:18+00"
    },
    {
        "name": "Jamboree",
        "address_line_1": "6 St Chad's Pl",
        "address_line_2": "",
        "county": "Greater London",
        "postcode": "WC1X 9HH",
        "address_area": "Kings Cross",
        "active": true,
        "timezone": "Europe/London",
        "latitude": "51.53059860",
        "longitude": "-0.11968700",
        "created_on": "2025-12-21 20:08:18+00",
        "modified_on": "2025-12-21 20:08:18+00"
    },
    {
        "name": "The Birds",
        "address_line_1": "692 High Road",
        "address_line_2": "Leytontone",
        "county": "Greater London",
        "postcode": "E11 3AA",
        "address_area": "Leytontone",
        "active": true,
        "timezone": "Europe/London",
        "latitude": "51.56913360",
        "longitude": "0.01223640",
        "created_on": "2025-12-21 20:08:19+00",
        "modified_on": "2025-12-21 20:08:19+00"
    },
    {
        "name": "The Cambria",
        "address_line_1": "40 Kemerton Rd",
        "address_line_2": "",
        "county": "Greater London",
        "postcode": "SE5 9AR",
        "address_area": "Camberwell",
        "active": true,
        "timezone": "Europe/London",
        "latitude": "51.46444440",
        "longitude": "-0.09805560",
        "created_on": "2025-12-21 20:08:19+00",
        "modified_on": "2025-12-21 20:08:19+00"
    },
    {
        "name": "Soho Parish Church",
        "address_line_1": "23 Great Windmill Street",
        "address_line_2": "",
        "county": "Greater London",
        "postcode": "W1D 7LF",
        "address_area": "Soho",
        "active": true,
        "timezone": "Europe/London",
        "latitude": "51.51170900",
        "longitude": "-0.13442530",
        "created_on": "2025-12-21 20:08:19+00",
        "modified_on": "2025-12-21 20:08:19+00"
    },
    {
        "name": "Fitzrovia Community Centre",
        "address_line_1": "2 Foley Street",
        "address_line_2": "",
        "county": "Greater London",
        "postcode": "W1W 6DL",
        "address_area": "Fitzrovia",
        "active": true,
        "timezone": "Europe/London",
        "latitude": "51.51952900",
        "longitude": "-0.13840700",
        "created_on": "2025-12-21 20:08:20+00",
        "modified_on": "2025-12-23 21:41:17+00"
    },
    {
        "name": "Quaker Meeting House",
        "address_line_1": "8 Hop Gardens",
        "address_line_2": "",
        "county": "Greater London",
        "postcode": "WC2N 4EH",
        "address_area": "Soho",
        "active": true,
        "timezone": "Europe/London",
        "latitude": "51.51069910",
        "longitude": "-0.12648520",
        "created_on": "2025-12-21 20:08:20+00",
        "modified_on": "2025-12-21 20:08:20+00"
    },
    {
        "name": "Mall Galleries",
        "address_line_1": "The Mall",
        "address_line_2": "",
        "county": "Greater London",
        "postcode": "SW1Y 5BD",
        "address_area": "Trafalgar Square",
        "active": true,
        "timezone": "Europe/London",
        "latitude": "51.50667860",
        "longitude": "-0.12999900",
        "created_on": "2025-12-21 20:08:20+00",
        "modified_on": "2025-12-21 20:08:20+00"
    },
    {
        "name": "Surrey Quays Shopping Centre",
        "address_line_1": "43 Surrey Quays",
        "address_line_2": "Redriff Road",
        "county": "Greater London",
        "postcode": "SE16 7LL",
        "address_area": "Surrey Quays",
        "active": true,
        "timezone": "Europe/London",
        "latitude": null,
        "longitude": null,
        "created_on": "2025-12-21 20:08:21+00",
        "modified_on": "2025-12-21 20:08:21+00"
    },
    {
        "name": "Fitness Hub East London",
        "address_line_1": "771-773 High Rd Leytonstone",
        "address_line_2": "",
        "county": "Greater London",
        "postcode": "E11 4QS",
        "address_area": "Leytonstone",
        "active": true,
        "timezone": "Europe/London",
        "latitude": "51.56677450",
        "longitude": "0.01018510",
        "created_on": "2025-12-21 20:08:21+00",
        "modified_on": "2025-12-21 20:08:21+00"
    },
    {
        "name": "Great North Wood Pub",
        "address_line_1": "3 Knight's Hill",
        "address_line_2": "West Norwood",
        "county": "Greater London",
        "postcode": "SE27 0HS",
        "address_area": "West Norwood",
        "active": true,
        "timezone": "Europe/London",
        "latitude": "51.43150940",
        "longitude": "-0.10396850",
        "created_on": "2025-12-21 20:08:22+00",
        "modified_on": "2025-12-21 20:08:22+00"
    },
    {
        "name": "Est Croydon URC",
        "address_line_1": "Addiscombe Grove",
        "address_line_2": "Croydon",
        "county": "Greater London",
        "postcode": "CR0 5LP",
        "address_area": "Est Croydon",
        "active": true,
        "timezone": "Europe/London",
        "latitude": "51.37504930",
        "longitude": "-0.09269780",
        "created_on": "2025-12-21 20:08:22+00",
        "modified_on": "2025-12-21 20:08:22+00"
    },
    {
        "name": "Beehive Pub",
        "address_line_1": "Stoneleigh Road",
        "address_line_2": "",
        "county": "Greater London",
        "postcode": "N17 9JW",
        "address_area": "Tottenham",
        "active": true,
        "timezone": "Europe/London",
        "latitude": "51.59223420",
        "longitude": "-0.06926300",
        "created_on": "2025-12-21 20:08:22+00",
        "modified_on": "2025-12-21 20:08:22+00"
    },
    {
        "name": "The North London Tavern",
        "address_line_1": "375 Kilburn High Rd",
        "address_line_2": "upstairs",
        "county": "Greater London",
        "postcode": "NW6 7QB",
        "address_area": "Kilburn",
        "active": true,
        "timezone": "Europe/London",
        "latitude": "51.54560180",
        "longitude": "-0.20254270",
        "created_on": "2025-12-21 20:08:22+00",
        "modified_on": "2025-12-21 20:08:22+00"
    },
    {
        "name": "Ciroâ€™s Life Drawing",
        "address_line_1": "Unit 6, The Ivories",
        "address_line_2": "6 Northampton St",
        "county": "Greater London",
        "postcode": "N1 2HY",
        "address_area": "Islington",
        "active": true,
        "timezone": "Europe/London",
        "latitude": "51.54157510",
        "longitude": "-0.09559910",
        "created_on": "2025-12-21 20:08:22+00",
        "modified_on": "2025-12-21 20:08:22+00"
    },
    {
        "name": "Old White Bear",
        "address_line_1": "2 Well Road",
        "address_line_2": "Hampstead",
        "county": "Greater London",
        "postcode": "NW3 1LJ",
        "address_area": "Hampstead London",
        "active": true,
        "timezone": "Europe/London",
        "latitude": "51.55871650",
        "longitude": "-0.17561790",
        "created_on": "2025-12-21 20:08:23+00",
        "modified_on": "2025-12-21 20:08:23+00"
    },
    {
        "name": "The Selkirk",
        "address_line_1": "60 Selkirk Road",
        "address_line_2": "Tooting",
        "county": "Greater London",
        "postcode": "SW17 0ES",
        "address_area": "Wandsworth",
        "active": true,
        "timezone": "Europe/London",
        "latitude": "51.43030910",
        "longitude": "-0.16946630",
        "created_on": "2025-12-21 20:08:23+00",
        "modified_on": "2025-12-21 20:08:23+00"
    },
    {
        "name": "Dunton Green Village Hall",
        "address_line_1": "London Road, Dunton Green",
        "address_line_2": "Sevenoaks",
        "county": "Kent",
        "postcode": "TN13 2TE",
        "address_area": "Sevenoaks, Kent",
        "active": true,
        "timezone": "Europe/London",
        "latitude": "51.29791960",
        "longitude": "0.16428630",
        "created_on": "2025-12-21 20:08:23+00",
        "modified_on": "2025-12-21 20:08:23+00"
    },
    {
        "name": "OPEN Ealing Art Centre ",
        "address_line_1": "Unit 14 School Lane",
        "address_line_2": "Dickens Yard Ealing",
        "county": "Greater London",
        "postcode": "W5 2TD",
        "address_area": "Ealing",
        "active": true,
        "timezone": "Europe/London",
        "latitude": "51.51401080",
        "longitude": "-0.30593460",
        "created_on": "2025-12-21 20:08:23+00",
        "modified_on": "2025-12-21 20:08:23+00"
    },
    {
        "name": "Dulwich Art Group & School",
        "address_line_1": "4a Champion Hill",
        "address_line_2": "",
        "county": "Greater London",
        "postcode": "SE5 8AH",
        "address_area": "Dulwich",
        "active": true,
        "timezone": "Europe/London",
        "latitude": "51.46495810",
        "longitude": "-0.08923640",
        "created_on": "2025-12-21 20:08:23+00",
        "modified_on": "2025-12-21 20:08:23+00"
    },
    {
        "name": "The Grosvenor Pub",
        "address_line_1": "127 Oaklands Road",
        "address_line_2": "",
        "county": "Greater London",
        "postcode": "W7 2DT",
        "address_area": "Ealing, West London",
        "active": true,
        "timezone": "Europe/London",
        "latitude": "51.50672850",
        "longitude": "-0.32764140",
        "created_on": "2025-12-21 20:08:23+00",
        "modified_on": "2025-12-21 20:08:23+00"
    },
    {
        "name": "Jazzbourne",
        "address_line_1": "443 New Cross Road",
        "address_line_2": "",
        "county": "Greater London",
        "postcode": "SE14 6TA",
        "address_area": "New Cross",
        "active": true,
        "timezone": "Europe/London",
        "latitude": "51.47578040",
        "longitude": "-0.03020770",
        "created_on": "2025-12-21 20:08:24+00",
        "modified_on": "2025-12-21 20:08:24+00"
    },
    {
        "name": "Redlees Studios",
        "address_line_1": "Worton Rd",
        "address_line_2": "Redlees Park, Redlees Studios",
        "county": "Greater London",
        "postcode": "TW7 6DW",
        "address_area": "Isleworth",
        "active": true,
        "timezone": "Europe/London",
        "latitude": "51.46736950",
        "longitude": "-0.33255020",
        "created_on": "2025-12-21 20:08:24+00",
        "modified_on": "2025-12-21 20:08:24+00"
    },
    {
        "name": "Quaker Meeting House Westminster",
        "address_line_1": "52 St Martins Lane, Hop Gardens Entrance",
        "address_line_2": "Charing Cross",
        "county": "Greater London",
        "postcode": "WC2N 4EA",
        "address_area": "Covent Garden",
        "active": true,
        "timezone": "Europe/London",
        "latitude": "51.51077700",
        "longitude": "-0.12677720",
        "created_on": "2025-12-21 20:08:24+00",
        "modified_on": "2025-12-21 20:08:24+00"
    },
    {
        "name": "Waterloo Action Centre",
        "address_line_1": "14 Baylis Road Waterloo",
        "address_line_2": "",
        "county": "Greater London",
        "postcode": "SE1 7AA",
        "address_area": "Waterloo",
        "active": true,
        "timezone": "Europe/London",
        "latitude": "51.50193370",
        "longitude": "-0.11045970",
        "created_on": "2025-12-21 20:08:24+00",
        "modified_on": "2025-12-21 20:08:24+00"
    },
    {
        "name": "St Pancras Church House",
        "address_line_1": "1 Lancing Street",
        "address_line_2": "",
        "county": "Greater London",
        "postcode": "NW1 1NA",
        "address_area": "Euston",
        "active": true,
        "timezone": "Europe/London",
        "latitude": "51.52844040",
        "longitude": "-0.13146300",
        "created_on": "2025-12-21 20:08:24+00",
        "modified_on": "2025-12-21 20:08:24+00"
    },
    {
        "name": "Vaulty Towers",
        "address_line_1": "34 Lower Marsh",
        "address_line_2": "",
        "county": "Greater London",
        "postcode": "SE1 7RG",
        "address_area": "Waterloo",
        "active": true,
        "timezone": "Europe/London",
        "latitude": "51.50113470",
        "longitude": "-0.11190670",
        "created_on": "2025-12-21 20:08:25+00",
        "modified_on": "2025-12-21 20:08:25+00"
    },
    {
        "name": "Estorick Collection of Modern Italian Art",
        "address_line_1": "39a Canonbury Square",
        "address_line_2": "",
        "county": "Greater London",
        "postcode": "N1 2AN",
        "address_area": "Islington",
        "active": true,
        "timezone": "Europe/London",
        "latitude": "51.54392680",
        "longitude": "-0.10048570",
        "created_on": "2025-12-21 20:08:25+00",
        "modified_on": "2025-12-21 20:08:25+00"
    },
    {
        "name": "Carmine Crimson Studios",
        "address_line_1": "39.5 Castle Street",
        "address_line_2": "",
        "county": "Surrey",
        "postcode": "GU1 3UQ",
        "address_area": "Guildford",
        "active": true,
        "timezone": "Europe/London",
        "latitude": "51.23433170",
        "longitude": "-0.57359210",
        "created_on": "2025-12-21 20:08:25+00",
        "modified_on": "2025-12-21 20:08:25+00"
    },
    {
        "name": "TACO Print Space",
        "address_line_1": "30 Poplar Place",
        "address_line_2": "",
        "county": "Greater London",
        "postcode": "SE28 8BB",
        "address_area": "Abbey Wood, Thamesmead, Greenwich",
        "active": true,
        "timezone": "Europe/London",
        "latitude": "51.50444790",
        "longitude": "0.12008020",
        "created_on": "2025-12-21 20:08:25+00",
        "modified_on": "2025-12-21 20:08:25+00"
    },
    {
        "name": "Old Queens Head",
        "address_line_1": "44 Essex Road",
        "address_line_2": "Islington",
        "county": "Greater London",
        "postcode": "N1 8LN",
        "address_area": "Angel",
        "active": true,
        "timezone": "Europe/London",
        "latitude": "51.53720000",
        "longitude": "-0.10040000",
        "created_on": "2025-12-23 21:17:41+00",
        "modified_on": "2025-12-23 21:17:41+00"
    },
    {
        "name": "Toulouse Lautrec",
        "address_line_1": "140 Newington Butts",
        "address_line_2": "Kennington",
        "county": "Greater London",
        "postcode": "SE11 4RN",
        "address_area": "Kennington",
        "active": true,
        "timezone": "Europe/London",
        "latitude": "51.49097100",
        "longitude": "-0.10369600",
        "created_on": "2025-12-23 21:17:41+00",
        "modified_on": "2025-12-23 21:17:41+00"
    },
    {
        "name": "Three Colts Tavern",
        "address_line_1": "199 Cambridge Heath Road",
        "address_line_2": "Bethnal Green",
        "county": "Greater London",
        "postcode": "E2 0EL",
        "address_area": "Bethnal Green",
        "active": true,
        "timezone": "Europe/London",
        "latitude": "51.52470000",
        "longitude": "-0.05510000",
        "created_on": "2025-12-23 21:17:41+00",
        "modified_on": "2025-12-23 21:17:41+00"
    },
    {
        "name": "The Phoenix",
        "address_line_1": "37 Cavendish Square",
        "address_line_2": "",
        "county": "Greater London",
        "postcode": "W1G 0PP",
        "address_area": "Oxford Circus",
        "active": true,
        "timezone": "Europe/London",
        "latitude": "51.51650000",
        "longitude": "-0.14500000",
        "created_on": "2025-12-23 21:17:41+00",
        "modified_on": "2025-12-23 21:17:41+00"
    },
    {
        "name": "The Peoples Park Tavern",
        "address_line_1": "360 Victoria Park Road",
        "address_line_2": "",
        "county": "Greater London",
        "postcode": "E9 7BT",
        "address_area": "Victoria Park",
        "active": true,
        "timezone": "Europe/London",
        "latitude": "51.53929000",
        "longitude": "-0.04047000",
        "created_on": "2025-12-23 21:17:41+00",
        "modified_on": "2025-12-23 21:17:41+00"
    },
    {
        "name": "Prince of Peckham",
        "address_line_1": "1 Clayton Road",
        "address_line_2": "",
        "county": "Greater London",
        "postcode": "SE15 5JA",
        "address_area": "Peckham",
        "active": true,
        "timezone": "Europe/London",
        "latitude": "51.47365500",
        "longitude": "-0.06532100",
        "created_on": "2025-12-23 21:17:41+00",
        "modified_on": "2025-12-23 21:17:41+00"
    },
    {
        "name": "Trinity Arms",
        "address_line_1": "45 Trinity Gardens",
        "address_line_2": "",
        "county": "Greater London",
        "postcode": "SW9 8DR",
        "address_area": "Brixton",
        "active": true,
        "timezone": "Europe/London",
        "latitude": "51.46497700",
        "longitude": "-0.11718800",
        "created_on": "2025-12-23 21:17:41+00",
        "modified_on": "2025-12-23 21:17:41+00"
    },
    {
        "name": "Cat & Mutton",
        "address_line_1": "76 Broadway Market",
        "address_line_2": "",
        "county": "Greater London",
        "postcode": "E8 4QJ",
        "address_area": "Broadway Market",
        "active": true,
        "timezone": "Europe/London",
        "latitude": "51.53670000",
        "longitude": "-0.06170000",
        "created_on": "2025-12-23 21:17:41+00",
        "modified_on": "2025-12-23 21:17:41+00"
    },
    {
        "name": "Lost Souls Pizza",
        "address_line_1": "245 Eversholt Street",
        "address_line_2": "",
        "county": "Greater London",
        "postcode": "NW1 1BA",
        "address_area": "Camden",
        "active": true,
        "timezone": "Europe/London",
        "latitude": "51.53391600",
        "longitude": "-0.13824700",
        "created_on": "2025-12-23 21:17:41+00",
        "modified_on": "2025-12-23 21:17:41+00"
    }
]